,City,Lat,Lng,Max Temp,Humidity,Cloudiness,Wind Speed,Country,Date
0,kyra,49.5776,111.9753,17.69,52,9,11.45,RU,1634314471
1,faranah,10.0404,-10.7434,86.47,62,67,3.18,GN,1634314471
2,egvekinot,66.3167,-179.1667,11.97,77,28,7.23,RU,1634314472
3,jamestown,42.097,-79.2353,74.52,88,90,4.61,US,1634314400
4,kodiak,57.79,-152.4072,33.31,80,20,6.91,US,1634314473
5,klaksvik,62.2266,-6.589,45.52,76,100,25.3,FO,1634314473
6,kapaa,22.0752,-159.319,73.72,79,75,3.0,US,1634314474
7,ancud,-41.8697,-73.8203,53.13,84,99,11.86,CL,1634314474
8,kimbe,-5.5502,150.1429,76.78,93,83,2.75,PG,1634314475
9,ati,13.2154,18.3353,87.93,50,100,1.79,TD,1634314475
10,saint george,37.1041,-113.5841,55.44,41,1,1.01,US,1634314277
11,chokurdakh,70.6333,147.9167,-3.1,100,99,0.81,RU,1634314476
12,zhigansk,66.7697,123.3711,10.11,95,37,9.44,RU,1634314477
13,bambous virieux,-20.3428,57.7575,74.21,76,19,13.0,MU,1634314477
14,san patricio,28.017,-97.5169,88.02,71,11,5.91,US,1634314478
15,kukuna,9.4,-12.6667,89.42,61,30,2.71,SL,1634314479
16,castro,-24.7911,-50.0119,66.54,93,100,5.64,BR,1634314479
17,punta arenas,-53.15,-70.9167,50.11,53,75,33.38,CL,1634314379
18,hermanus,-34.4187,19.2345,59.9,72,99,23.26,ZA,1634314480
19,kahului,20.8947,-156.47,74.84,86,40,10.36,US,1634314480
20,onega,63.9061,38.1404,37.63,89,27,8.97,RU,1634314481
21,saskylakh,71.9167,114.0833,5.23,96,100,7.81,RU,1634314481
22,hilo,19.7297,-155.09,71.33,92,90,9.22,US,1634314482
23,atuona,-9.8,-139.0333,77.61,77,41,19.46,PF,1634314482
24,karratha,-20.7377,116.8463,74.39,69,5,13.11,AU,1634314483
25,port alfred,-33.5906,26.891,67.19,74,96,5.28,ZA,1634314483
26,leh,34.1667,77.5833,48.0,18,0,3.53,IN,1634314483
27,ponta do sol,32.6667,-17.1,78.71,70,16,2.39,PT,1634314484
28,hobart,-42.8794,147.3294,51.66,88,90,7.0,AU,1634314387
29,ahipara,-35.1667,173.1667,47.43,82,0,3.22,NZ,1634314485
30,rikitea,-23.1203,-134.9692,73.94,73,47,3.65,PF,1634314485
31,albany,42.6001,-73.9662,73.31,86,95,4.56,US,1634314398
32,busselton,-33.65,115.3333,65.05,66,64,10.49,AU,1634314486
33,severo-kurilsk,50.6789,156.125,43.65,89,56,15.01,RU,1634314486
34,providencia,28.7167,-111.5833,76.21,37,0,4.0,MX,1634314486
35,micheweni,-4.9667,39.8333,78.17,81,60,11.01,TZ,1634314487
36,coihaique,-45.5752,-72.0662,52.41,57,75,6.91,CL,1634314487
37,bluff,-46.6,168.3333,42.58,85,95,10.33,NZ,1634314488
38,hithadhoo,-0.6,73.0833,83.07,76,98,24.63,MV,1634314488
39,roald,62.5833,6.1333,43.9,75,75,12.66,NO,1634314489
40,gubkinskiy,64.434,76.5026,38.57,91,100,9.91,RU,1634314489
41,puerto ayora,-0.7393,-90.3518,75.16,79,95,10.87,EC,1634314490
42,tarakan,3.3,117.6333,83.7,84,75,6.91,ID,1634314490
43,thompson,55.7435,-97.8558,35.76,93,90,11.5,CA,1634314457
44,bubaque,11.2833,-15.8333,84.36,66,3,7.58,GW,1634314491
45,chabahar,25.2919,60.643,81.16,59,0,8.14,IR,1634314491
46,strezhevoy,60.7333,77.5889,44.58,89,86,9.24,RU,1634314492
47,carnaiba,-8.7,-37.6667,98.22,20,33,12.86,BR,1634314492
48,new norfolk,-42.7826,147.0587,51.3,78,100,4.0,AU,1634314493
49,nome,64.5011,-165.4064,26.67,80,90,9.22,US,1634314503
50,emba,48.8264,58.1442,51.48,35,13,7.72,KZ,1634314504
51,taoudenni,22.6783,-3.9836,103.15,8,41,3.98,ML,1634314505
52,upernavik,72.7868,-56.1549,23.9,67,31,8.01,GL,1634314506
53,turukhansk,65.8167,87.9833,34.2,94,100,10.78,RU,1634314506
54,gornopravdinsk,60.05,69.9,46.36,78,100,9.44,RU,1634314507
55,brae,60.3964,-1.353,48.11,71,99,27.54,GB,1634314508
56,georgetown,5.4112,100.3354,85.95,79,81,2.3,MY,1634314509
57,avallon,47.4833,3.9,58.46,59,100,4.12,FR,1634314509
58,znamenskoye,57.1281,73.8282,42.12,93,0,5.06,RU,1634314510
59,telafas,6.6353,124.975,75.04,97,100,0.72,PH,1634314510
60,bredasdorp,-34.5322,20.0403,59.29,51,100,17.92,ZA,1634314511
61,cidreira,-30.1811,-50.2056,69.1,89,100,8.59,BR,1634314511
62,dolores,-36.3132,-57.6792,61.03,35,1,10.58,AR,1634314512
63,lorengau,-2.0226,147.2712,83.07,77,10,10.45,PG,1634314512
64,bethel,41.3712,-73.414,76.89,70,1,9.22,US,1634314513
65,ushuaia,-54.8,-68.3,51.46,46,75,16.11,AR,1634314512
66,lompoc,34.6391,-120.4579,77.09,38,1,8.05,US,1634314513
67,zabol,32.25,67.25,59.18,10,0,9.33,AF,1634314514
68,vaini,-21.2,-175.2,71.76,100,90,0.0,TO,1634314514
69,baykit,61.67,96.37,36.9,97,100,10.13,RU,1634314515
70,shubarkuduk,49.1447,56.4872,53.29,31,72,8.88,KZ,1634314515
71,bull savanna,17.8868,-77.5902,83.82,61,45,4.05,JM,1634314516
72,mataura,-46.1927,168.8643,36.72,98,71,2.04,NZ,1634314516
73,mar del plata,-38.0023,-57.5575,59.02,49,0,11.99,AR,1634314352
74,scottsbluff,41.8666,-103.6672,45.03,54,75,13.0,US,1634313912
75,shimoda,34.6667,138.95,70.74,85,51,4.12,JP,1634314517
76,emet,39.343,29.2585,60.44,57,55,6.58,TR,1634314517
77,anaconda,46.1285,-112.9423,40.19,68,38,7.23,US,1634314518
78,savelugu,9.6244,-0.8253,96.44,29,23,6.42,GH,1634314518
79,kupino,54.3663,77.2981,41.59,84,0,6.33,RU,1634314519
80,chifeng,42.2683,118.9636,30.61,23,0,18.88,CN,1634314519
81,sistranda,63.7256,8.834,42.91,66,100,24.85,NO,1634314520
82,kinablangan,7.6947,126.5503,78.89,87,84,4.92,PH,1634314520
83,lata,40.1629,-8.3327,78.35,40,79,8.25,PT,1634314520
84,xining,36.6167,101.7667,39.13,90,98,2.86,CN,1634314521
85,cape town,-33.9258,18.4232,62.28,71,91,5.99,ZA,1634314500
86,porto franco,-6.3383,-47.3992,100.67,27,94,2.64,BR,1634314522
87,rocha,-34.4833,-54.3333,59.2,54,100,17.67,UY,1634314522
88,yellowknife,62.456,-114.3525,37.42,99,75,3.0,CA,1634314522
89,kyren,51.6828,102.1408,22.59,58,7,2.33,RU,1634314523
90,lebu,-37.6167,-73.65,52.16,60,2,10.89,CL,1634314523
91,ilulissat,69.2167,-51.1,33.82,75,20,13.8,GL,1634314523
92,ulaangom,49.9811,92.0667,32.18,77,12,3.11,MN,1634314524
93,kavieng,-2.5744,150.7967,82.63,77,19,12.48,PG,1634314524
94,atar,20.5169,-13.0499,103.24,7,22,15.28,MR,1634314525
95,geraldton,-28.7667,114.6,59.41,88,2,4.61,AU,1634314525
96,burnie,-41.0667,145.9167,55.92,68,100,11.61,AU,1634314525
97,beipiao,41.7919,120.7792,35.74,24,0,18.23,CN,1634314526
98,yaan,7.3833,8.5667,86.22,64,41,6.4,NG,1634314536
99,kabanjahe,3.1001,98.4908,68.76,93,96,3.36,ID,1634314537
100,yebaishou,41.3975,119.6408,33.85,23,0,19.55,CN,1634314537
101,santa maria del oro,25.9333,-105.3667,69.8,44,57,3.15,MX,1634314538
102,vao,-22.6667,167.4833,69.8,80,100,15.77,NC,1634314538
103,tornio,65.8481,24.1466,46.42,97,100,12.17,FI,1634314538
104,kysyl-syr,63.8986,122.7617,13.53,96,46,3.31,RU,1634314539
105,ponferrada,42.5466,-6.5962,74.82,37,85,3.0,ES,1634314539
106,la ronge,55.1001,-105.2842,37.65,70,20,4.61,CA,1634314540
107,raudeberg,61.9875,5.1352,41.86,93,100,4.0,NO,1634314540
108,dikson,73.5069,80.5464,27.9,92,97,4.34,RU,1634314541
109,cabedelo,-6.9811,-34.8339,86.67,62,69,16.17,BR,1634314541
110,tiksi,71.6872,128.8694,7.07,96,97,8.93,RU,1634314542
111,cherskiy,68.75,161.3,-6.47,100,95,2.75,RU,1634314542
112,usinsk,65.9939,57.5281,39.78,81,100,9.91,RU,1634314543
113,barra,-11.0894,-43.1417,93.76,34,28,9.6,BR,1634314446
114,tacoronte,28.4769,-16.4102,71.55,75,20,8.01,ES,1634314543
115,longyearbyen,78.2186,15.6401,28.24,59,40,5.75,SJ,1634314544
116,pithapuram,17.1167,82.2667,82.72,82,100,2.33,IN,1634314544
117,hervey bay,-25.2986,152.8535,68.11,56,4,13.73,AU,1634314545
118,clyde river,70.4692,-68.5914,32.23,74,20,4.61,CA,1634314545
119,lazaro cardenas,17.9583,-102.2,84.29,76,48,3.02,MX,1634314546
120,husavik,66.0449,-17.3389,39.11,96,100,4.88,IS,1634314546
121,fortuna,40.5982,-124.1573,49.66,96,1,4.61,US,1634314410
122,vidim,56.4088,103.1106,27.34,48,100,9.51,RU,1634314547
123,potoru,7.5072,-11.4786,78.82,85,72,6.13,SL,1634314547
124,totness,5.8833,-56.3167,89.53,55,11,9.42,SR,1634314548
125,avarua,-21.2078,-159.775,64.45,100,0,2.3,CK,1634314548
126,pedasi,7.5333,-80.0333,81.99,75,100,5.08,PA,1634314549
127,kruisfontein,-34.0033,24.7314,60.89,74,100,14.61,ZA,1634314549
128,elliot,-31.3333,27.85,73.87,25,93,8.55,ZA,1634314550
129,saint-joseph,-21.3667,55.6167,72.46,81,20,13.82,RE,1634314551
130,butaritari,3.0707,172.7902,80.98,76,67,11.41,KI,1634314551
131,east london,-33.0153,27.9116,67.14,77,0,6.91,ZA,1634314550
132,margate,51.3813,1.3862,57.06,57,16,1.01,GB,1634314552
133,san jose,37.3394,-121.895,67.86,44,20,0.0,US,1634314276
134,iqaluit,63.7506,-68.5145,29.93,68,20,2.3,CA,1634314552
135,saint-georges,12.0564,-61.7485,87.48,74,40,20.71,GD,1634314553
136,wasco,35.5941,-119.341,66.13,61,1,0.0,US,1634314553
137,byron bay,-28.65,153.6167,63.88,51,0,7.16,AU,1634314554
138,arlit,18.7369,7.3853,100.15,7,4,14.2,NE,1634314555
139,port lincoln,-34.7333,135.8667,54.64,72,97,10.71,AU,1634314555
140,dossor,47.5272,52.9811,57.54,27,6,9.78,KZ,1634314556
141,oistins,13.0667,-59.5333,87.89,70,40,13.8,BB,1634314557
142,ugoofaaru,5.6667,73.0,82.65,81,23,25.5,MV,1634314557
143,thunder bay,48.4001,-89.3168,52.29,71,78,1.99,CA,1634314505
144,saint-philippe,-21.3585,55.7679,73.47,83,39,12.66,RE,1634314558
145,shinpokh,34.3292,71.1782,74.61,17,0,1.21,PK,1634314558
146,tete,-16.1564,33.5867,98.69,26,40,6.91,MZ,1634314551
147,krasnoselkup,65.7,82.4667,35.35,92,100,7.76,RU,1634314569
148,bathsheba,13.2167,-59.5167,88.41,70,40,13.8,BB,1634314570
149,novouzensk,50.4592,48.1431,51.33,45,97,6.26,RU,1634314570
150,qaanaaq,77.484,-69.3632,20.25,92,100,10.0,GL,1634314571
151,monrovia,6.3005,-10.7969,87.57,73,40,9.8,LR,1634314571
152,tocopilla,-22.092,-70.1979,64.76,66,2,4.52,CL,1634314572
153,kapuskasing,49.4169,-82.4331,57.29,72,75,10.36,CA,1634314572
154,barrow,71.2906,-156.7887,24.82,74,90,18.41,US,1634314573
155,matara,5.9485,80.5353,79.34,87,74,11.36,LK,1634314573
156,provins,48.5833,3.1667,63.32,59,95,4.56,FR,1634314573
157,ambatolampy,-19.3833,47.4167,58.77,86,2,6.73,MG,1634314574
158,numan,9.4667,12.0333,94.28,32,9,5.23,NG,1634314574
159,axim,4.8699,-2.2405,82.65,73,31,9.37,GH,1634314575
160,san cristobal,7.7669,-72.225,82.58,42,92,6.24,VE,1634314575
161,krasnoslobodsk,48.7072,44.5714,52.56,66,75,6.71,RU,1634314576
162,san jose de guanipa,8.8872,-64.1651,88.72,54,74,10.13,VE,1634314576
163,bonavista,48.6499,-53.1147,49.12,95,100,33.89,CA,1634314577
164,domoszlo,47.8333,20.1167,48.27,57,5,2.35,HU,1634314577
165,hamilton,39.1834,-84.5333,74.37,81,90,1.01,US,1634314342
166,najran,17.4924,44.1277,81.25,15,1,7.47,SA,1634314578
167,mount gambier,-37.8333,140.7667,51.98,67,100,12.68,AU,1634314578
168,bonthe,7.5264,-12.505,84.72,65,42,10.65,SL,1634314579
169,chiredzi,-21.05,31.6667,92.46,17,47,9.33,ZW,1634314580
170,saint-pierre,-21.3393,55.4781,73.56,83,0,20.71,RE,1634314580
171,monywa,22.1167,95.1333,78.53,85,100,3.36,MM,1634314580
172,kalevala,65.2,31.1667,42.66,83,100,11.83,RU,1634314581
173,buraydah,26.326,43.975,91.85,13,0,5.82,SA,1634314581
174,arecibo,18.4724,-66.7157,89.2,84,93,1.99,PR,1634314582
175,mostre,44.0229,18.1353,43.79,95,100,3.27,BA,1634314582
176,bessemer,33.4018,-86.9544,84.33,72,1,6.91,US,1634314583
177,bilma,18.6853,12.9164,96.49,8,84,5.03,NE,1634314583
178,paita,-5.0892,-81.1144,75.76,72,96,10.85,PE,1634314584
179,palmer,42.1584,-72.3287,76.77,69,75,5.75,US,1634314584
180,sao filipe,14.8961,-24.4956,79.09,75,3,11.5,CV,1634314585
181,williston,48.147,-103.618,43.21,72,63,3.0,US,1634314561
182,narsaq,60.9167,-46.05,37.62,40,93,3.74,GL,1634314585
183,tuktoyaktuk,69.4541,-133.0374,26.6,86,90,9.22,CA,1634314586
184,mumbwa,-14.9783,27.0619,86.97,14,8,5.41,ZM,1634314586
185,saint anthony,45.0205,-93.218,53.35,69,1,3.0,US,1634314560
186,khadyzhensk,44.4256,39.5319,58.51,82,13,1.28,RU,1634314587
187,hobyo,5.3505,48.5268,79.77,80,90,19.62,SO,1634314588
188,telenesti,47.4997,28.3656,54.09,51,70,6.76,MD,1634314588
189,ribeira grande,38.5167,-28.7,73.8,64,20,6.91,PT,1634314589
190,esperance,-33.8667,121.9,54.97,79,29,18.7,AU,1634314589
191,ahuimanu,21.4447,-157.8378,74.91,80,90,5.75,US,1634314589
192,marathon,44.9,-89.7668,52.81,76,1,1.01,US,1634314590
193,carnarvon,-24.8667,113.6333,68.07,83,5,9.22,AU,1634314590
194,porto novo,6.4965,2.6036,87.62,66,55,9.57,BJ,1634314591
195,chimore,-16.9833,-65.1333,88.21,63,83,1.7,BO,1634314591
196,sao joao da barra,-21.6403,-41.0511,78.89,79,96,14.32,BR,1634314602
197,rimbey,52.6334,-114.2353,35.62,45,23,5.53,CA,1634314602
198,poum,-20.2333,164.0167,73.78,75,51,12.3,NC,1634314603
199,dzhebariki-khaya,62.2167,135.8,12.85,97,97,1.41,RU,1634314603
200,kaitangata,-46.2817,169.8464,45.48,80,99,1.92,NZ,1634314604
201,vila franca do campo,37.7167,-25.4333,72.01,71,24,8.37,PT,1634314604
202,onguday,50.75,86.15,30.92,72,3,3.74,RU,1634314605
203,bredy,52.4153,60.3411,47.48,56,25,8.75,RU,1634314605
204,churapcha,62.0025,132.4325,11.52,95,55,5.39,RU,1634314606
205,provideniya,64.3833,-173.3,21.85,79,4,6.85,RU,1634314606
206,chuy,-33.6971,-53.4616,58.96,67,100,17.85,UY,1634314607
207,airai,-8.9266,125.4092,63.61,90,95,0.74,TL,1634314607
208,sorland,67.667,12.6934,37.47,79,100,12.17,NO,1634314608
209,puri,19.8,85.85,81.12,84,100,11.41,IN,1634314608
210,asifabad,19.3667,79.2833,73.63,96,100,5.28,IN,1634314609
211,do gonbadan,30.3586,50.7981,82.49,20,0,0.0,IR,1634314609
212,dali,25.7,100.1833,58.75,96,100,2.95,CN,1634314610
213,faanui,-16.4833,-151.75,80.47,73,6,17.47,PF,1634314610
214,port keats,-14.25,129.55,80.31,80,33,5.48,AU,1634314611
215,mount isa,-20.7333,139.5,69.57,21,0,11.5,AU,1634314611
216,sao raimundo nonato,-9.0153,-42.6994,99.66,23,47,9.89,BR,1634314490
217,tiznit,29.5833,-9.5,82.65,28,7,7.43,MA,1634314612
218,hami,42.8,93.45,54.18,22,76,5.21,CN,1634314612
219,aykhal,66.0,111.5,17.51,93,100,17.65,RU,1634314613
220,belaya gora,68.5333,146.4167,12.15,97,96,2.37,RU,1634314613
221,lavrentiya,65.5833,-171.0,23.07,79,73,10.22,RU,1634314614
222,los llanos de aridane,28.6585,-17.9182,73.13,79,40,9.22,ES,1634314614
223,torbay,47.6666,-52.7314,49.28,97,90,23.02,CA,1634314561
224,university place,47.2356,-122.5504,55.71,80,90,10.36,US,1634314615
225,sandpoint,48.2766,-116.5533,47.68,86,90,4.61,US,1634314560
226,buchanan,5.8808,-10.0467,87.76,76,41,9.55,LR,1634314616
227,college,64.8569,-147.8028,28.2,80,75,0.0,US,1634314617
228,severo-yeniseyskiy,60.3725,93.0408,31.66,97,100,12.17,RU,1634314617
229,hanzhong,33.0728,107.0303,50.2,93,100,0.49,CN,1634314618
230,yarmouth,41.7057,-70.2286,71.11,89,90,1.99,US,1634314618
231,cururupu,-1.8283,-44.8683,90.79,50,89,9.01,BR,1634314395
232,kavaratti,10.5669,72.642,82.36,81,100,17.34,IN,1634314619
233,cabra,37.4725,-4.4421,81.84,30,51,7.16,ES,1634314619
234,macapa,0.0389,-51.0664,93.18,52,40,11.5,BR,1634314620
235,vila velha,-20.3297,-40.2925,85.95,58,0,9.22,BR,1634314621
236,bambanglipuro,-7.95,110.2833,63.61,82,100,4.18,ID,1634314621
237,havelock,34.8791,-76.9013,81.05,65,1,3.0,US,1634314622
238,nayoro,44.3506,142.4578,41.16,84,100,2.04,JP,1634314623
239,yar-sale,66.8333,70.8333,39.6,97,100,8.23,RU,1634314624
240,ouagadougou,12.3642,-1.5383,98.73,41,40,5.75,BF,1634314624
241,carutapera,-1.195,-46.02,86.22,65,88,9.1,BR,1634314625
242,port macquarie,-31.4333,152.9167,57.16,81,17,0.0,AU,1634314625
243,khatanga,71.9667,102.5,3.38,94,97,5.06,RU,1634314626
244,gidam,18.9833,81.4,73.26,98,100,3.38,IN,1634314627
245,grindavik,63.8424,-22.4338,44.55,93,75,12.66,IS,1634314637
246,port elizabeth,-33.918,25.5701,63.1,77,40,17.27,ZA,1634314638
247,mahebourg,-20.4081,57.7,74.25,77,17,13.06,MU,1634314639
248,gouyave,12.1646,-61.7296,86.77,74,40,20.71,GD,1634314639
249,peniche,39.3558,-9.3811,80.74,61,58,9.84,PT,1634314640
250,rawson,-43.3002,-65.1023,62.71,26,0,20.85,AR,1634314640
251,walvis bay,-22.9575,14.5053,63.09,64,2,26.06,NA,1634314641
252,plettenberg bay,-34.0527,23.3716,58.68,76,100,11.86,ZA,1634314642
253,telford,52.6766,-2.4493,56.39,63,20,4.61,GB,1634314503
254,araouane,18.9048,-3.5265,101.82,6,75,11.03,ML,1634314642
255,sitka,57.0531,-135.33,40.46,83,91,4.07,US,1634314507
256,ziniare,12.5822,-1.2983,98.64,29,71,1.59,BF,1634314643
257,varhaug,58.6147,5.6457,48.47,58,99,28.3,NO,1634314643
258,camacha,33.0833,-16.3333,72.36,68,20,11.5,PT,1634314644
259,touros,-5.1989,-35.4608,88.7,61,23,19.35,BR,1634314644
260,yerbogachen,61.2767,108.0108,22.26,93,100,13.56,RU,1634314645
261,vetlanda,57.4289,15.0776,46.62,61,26,7.72,SE,1634314645
262,ballina,-28.8667,153.5667,53.78,54,0,9.8,AU,1634314646
263,elk point,42.6833,-96.6836,52.84,42,6,13.47,US,1634314646
264,waounde,15.2637,-12.8682,104.67,13,2,5.93,SN,1634314647
265,the valley,18.217,-63.0578,87.66,74,40,11.5,AI,1634314647
266,rawah,34.4816,41.9093,87.33,19,85,5.64,IQ,1634314648
267,port hedland,-20.3167,118.5667,73.45,78,2,9.22,AU,1634314648
268,arraial do cabo,-22.9661,-42.0278,89.56,55,0,16.11,BR,1634314649
269,klyuchi,52.2667,79.1667,39.13,65,0,8.21,RU,1634314649
270,qingdao,36.0986,120.3719,60.4,82,0,6.71,CN,1634314650
271,san vicente,-26.6167,-54.1333,65.97,99,100,2.13,AR,1634314650
272,sakakah,29.9697,40.2064,92.77,11,1,8.01,SA,1634314651
273,kudahuvadhoo,2.6708,72.8944,83.05,78,91,25.66,MV,1634314651
274,mwanza,-2.5167,32.9,78.48,55,76,8.34,TZ,1634314652
275,norman wells,65.282,-126.8329,17.64,86,20,5.75,CA,1634314652
276,vestmannaeyjar,63.4427,-20.2734,43.79,87,40,14.97,IS,1634314653
277,japura,-0.3167,102.35,77.67,84,87,2.77,ID,1634314653
278,panguna,-6.3164,155.4848,68.16,97,94,1.36,PG,1634314654
279,winnemucca,40.973,-117.7357,43.11,49,1,5.75,US,1634314654
280,nikolskoye,59.7035,30.7861,46.4,88,100,12.1,RU,1634314655
281,lianzhou,24.7811,112.3825,60.82,93,99,6.8,CN,1634314655
282,polyarnyy,69.1989,33.4478,41.47,95,100,13.31,RU,1634314656
283,rancho palos verdes,33.7445,-118.387,78.98,33,1,1.99,US,1634314656
284,tommot,58.9564,126.2925,20.01,89,100,6.69,RU,1634314657
285,haikou,20.0458,110.3417,78.93,89,75,13.42,CN,1634314657
286,tautira,-17.7333,-149.15,75.22,76,39,17.11,PF,1634314658
287,carinhanha,-14.3047,-43.765,96.66,29,59,4.74,BR,1634314658
288,soubre,5.7856,-6.6083,80.51,79,65,6.08,CI,1634314659
289,klyuchevskiy,53.5317,119.4519,17.33,43,68,5.3,RU,1634314659
290,calvinia,-31.4707,19.776,51.6,54,99,21.18,ZA,1634314659
291,rio grande,-32.035,-52.0986,59.95,90,100,24.02,BR,1634314497
292,suileng,47.25,127.0833,29.21,87,58,10.78,CN,1634314660
293,bandarbeyla,9.4942,50.8122,79.84,79,100,10.04,SO,1634314661
294,pringsewu,-5.3582,104.9744,74.98,96,71,3.51,ID,1634314672
295,tasiilaq,65.6145,-37.6368,42.96,58,73,6.85,GL,1634314672
296,dryden,49.7833,-92.7503,44.89,81,90,12.66,CA,1634314672
297,valladolid,41.5833,-4.6667,73.89,35,44,6.76,ES,1634314411
298,victoria,22.2855,114.1577,81.32,85,100,5.01,HK,1634314429
299,kushima,31.4583,131.2333,71.11,88,0,3.94,JP,1634314673
300,ishurdi,24.1333,89.0833,83.91,72,36,4.79,BD,1634314674
301,bereda,43.2686,-7.5406,68.41,60,87,2.53,ES,1634314674
302,asau,46.4333,26.4,50.76,76,99,2.82,RO,1634314675
303,kinsale,51.7075,-8.5306,56.57,94,75,6.91,IE,1634314675
304,russell,32.3502,-85.1999,81.68,66,1,0.0,US,1634314527
305,nushki,29.5542,66.0215,65.12,10,0,1.77,PK,1634314676
306,iskilip,40.7353,34.4739,62.71,45,73,1.88,TR,1634314676
307,presidencia roque saenz pena,-26.7852,-60.4388,58.71,53,100,14.27,AR,1634314677
308,inongo,-1.95,18.2667,78.78,76,100,6.91,CD,1634314677
309,dudinka,69.4058,86.1778,32.9,98,100,13.4,RU,1634314678
310,mehamn,71.0357,27.8492,39.11,93,75,10.36,NO,1634314678
311,uni,57.7535,51.4923,44.35,73,100,16.49,RU,1634314679
312,grand gaube,-20.0064,57.6608,74.37,75,1,7.0,MU,1634314679
313,constitucion,-35.3333,-72.4167,56.75,46,0,15.9,CL,1634314680
314,nuevo progreso,23.1667,-97.95,88.59,78,50,5.91,MX,1634314680
315,coari,-4.085,-63.1414,98.42,32,91,4.45,BR,1634314681
316,lasa,46.6166,10.7002,56.28,67,59,6.82,IT,1634314682
317,broome,42.2506,-75.833,77.67,66,75,1.01,US,1634314683
318,nanortalik,60.1432,-45.2371,41.07,66,100,2.91,GL,1634314683
319,machali,-34.1833,-70.6667,58.28,47,0,9.22,CL,1634314659
320,chudovo,59.1167,31.6833,42.87,89,100,13.15,RU,1634314684
321,opuwo,-18.0607,13.84,88.14,14,2,21.88,NA,1634314685
322,bahia blanca,-38.7196,-62.2724,64.51,18,0,11.25,AR,1634314686
323,carlsbad,33.1581,-117.3506,80.58,32,1,1.99,US,1634313895
324,padang,-0.9492,100.3543,77.05,84,26,3.36,ID,1634314686
325,avera,33.194,-82.5271,83.08,60,27,0.67,US,1634314687
326,oulu,65.0124,25.4682,46.51,95,90,4.0,FI,1634314687
327,leningradskiy,69.3833,178.4167,17.11,95,100,6.53,RU,1634314688
328,halifax,44.6453,-63.5724,59.68,68,75,1.99,CA,1634314552
329,gornozavodsk,58.3758,58.3211,49.77,47,100,11.65,RU,1634314689
330,srandakan,-7.9386,110.2506,63.73,81,100,4.09,ID,1634314689
331,abu kamal,34.4506,40.9171,86.36,25,84,9.55,SY,1634314689
332,henties bay,-22.116,14.2845,62.85,72,3,17.78,NA,1634314690
333,concepcion,-36.827,-73.0498,57.0,51,0,14.97,CL,1634314690
334,gudari,19.35,83.7833,76.24,94,99,3.18,IN,1634314691
335,ajdabiya,30.7554,20.2263,72.19,53,0,17.22,LY,1634314691
336,pisco,-13.7,-76.2167,66.02,77,65,10.36,PE,1634314692
337,sibu,2.3,111.8167,80.91,94,40,1.14,MY,1634314693
338,north bend,43.4065,-124.2243,51.85,100,75,5.75,US,1634314693
339,katsuura,35.1333,140.3,71.71,75,61,7.36,JP,1634314694
340,mayor pablo lagerenza,-19.9309,-60.7718,63.1,79,100,19.19,PY,1634314694
341,muroto,33.2833,134.15,73.98,72,5,0.72,JP,1634314695
342,rodos,36.4408,28.2225,78.42,78,40,18.99,GR,1634314695
343,galesong,-5.3166,119.3661,78.82,82,87,6.46,ID,1634314706
344,chimoio,-19.1164,33.4833,75.16,52,60,4.61,MZ,1634314706
345,vardo,70.3705,31.1107,37.15,93,75,9.22,NO,1634314707
346,sal rei,16.1833,-22.9167,82.96,65,75,17.27,CV,1634314708
347,alofi,-19.0595,-169.9187,64.29,94,1,0.0,NU,1634314708
348,khani,41.9563,42.9566,56.77,76,63,3.11,GE,1634314709
349,minnedosa,50.2453,-99.8436,41.56,64,99,17.43,CA,1634314709
350,bol,13.4586,14.7147,84.72,60,77,11.61,TD,1634314710
351,nargana,9.4428,-78.5906,83.53,74,99,1.81,PA,1634314710
352,mattru,7.6244,-11.8332,82.26,76,76,3.33,SL,1634314710
353,tonstad,58.6626,6.7169,48.24,80,79,24.56,NO,1634314711
354,teya,60.3778,92.6267,35.31,97,100,10.76,RU,1634314711
355,nouadhibou,20.931,-17.0347,76.98,65,0,17.27,MR,1634314712
356,saldanha,-33.0117,17.9442,59.05,71,100,15.66,ZA,1634314712
357,tanabe,33.7333,135.3667,67.8,86,0,3.83,JP,1634314713
358,sulecin,52.4443,15.1168,49.71,88,100,8.88,PL,1634314713
359,saint-augustin,51.226,-58.6502,49.82,77,90,15.1,CA,1634314714
360,caconda,-13.7333,15.0667,84.96,20,69,8.39,AO,1634314714
361,lagoa,39.05,-27.9833,69.15,60,100,7.18,PT,1634314715
362,tessalit,20.1986,1.0114,99.41,6,72,6.13,ML,1634314715
363,durres,41.3231,19.4414,60.98,66,100,12.57,AL,1634314716
364,deloraine,-41.5333,146.6667,53.24,1,94,7.63,AU,1634314716
365,makakilo city,21.3469,-158.0858,73.72,82,1,4.61,US,1634314717
366,madera,37.1666,-119.8343,73.98,38,4,1.07,US,1634314640
367,vadlapudi,14.3167,79.8,85.15,65,100,4.5,IN,1634314717
368,waspan,14.7419,-83.9717,89.13,60,100,1.12,NI,1634314718
369,korfovskiy,48.2183,135.0564,31.46,80,100,4.45,RU,1634314718
370,bud,39.447,-86.1758,73.35,95,99,9.62,US,1634314719
371,revda,56.801,59.9303,50.81,56,85,8.23,RU,1634314719
372,luganville,-15.5333,167.1667,77.32,87,48,3.24,VU,1634314720
373,sinnamary,5.3833,-52.95,87.12,62,57,10.76,GF,1634314721
374,shimanovsk,52.0,127.7,27.03,54,100,12.66,RU,1634314721
375,itamarandiba,-17.8572,-42.8589,85.39,42,86,4.29,BR,1634314722
376,pevek,69.7008,170.3133,15.24,94,97,3.69,RU,1634314722
377,dingle,10.9995,122.6711,76.48,91,98,1.61,PH,1634314722
378,korla,41.7597,86.1469,52.66,33,0,5.97,CN,1634314723
379,nandi hills,0.1066,35.1838,58.89,90,91,2.93,KE,1634314724
380,satipo,-11.2522,-74.6386,85.57,61,100,1.97,PE,1634314724
381,kharp,66.8014,65.8081,38.66,99,100,3.4,RU,1634314725
382,wembley,-31.9333,115.8,74.03,53,94,4.61,AU,1634314725
383,biak,-0.9131,122.8766,77.9,86,57,3.47,ID,1634314726
384,codrington,-38.2667,141.9667,53.11,73,100,22.41,AU,1634314727
385,caravelas,-17.7125,-39.2481,84.45,62,99,9.95,BR,1634314727
386,alice springs,-23.7,133.8833,56.75,38,0,6.91,AU,1634314727
387,blagnac,43.6328,1.394,68.14,52,0,13.8,FR,1634314728
388,balaghat,21.8,80.1833,71.92,98,100,2.55,IN,1634314728
389,tilichiki,60.4667,166.1,20.21,72,100,14.52,RU,1634314729
390,mindelo,16.8901,-24.9804,81.95,61,20,28.77,CV,1634314729
391,bintulu,3.1667,113.0333,79.21,94,20,5.75,MY,1634314730
392,camana,-16.6228,-72.7111,64.2,80,86,10.4,PE,1634314740
393,nyurba,63.2842,118.3319,20.75,70,17,8.3,RU,1634314740
394,ouadda,8.0777,22.4007,73.11,91,100,4.68,CF,1634314741
395,yuzhnyy,53.2542,83.6936,34.18,64,0,8.95,RU,1634314742
396,flinders,-34.5833,150.8552,58.28,68,42,3.0,AU,1634314743
397,larsnes,62.2028,5.5773,43.59,89,100,15.17,NO,1634314743
398,souillac,-20.5167,57.5167,74.35,79,24,11.86,MU,1634314744
399,canutama,-6.5339,-64.3831,101.26,31,33,5.1,BR,1634314744
400,calama,-22.4667,-68.9333,70.29,13,0,24.16,CL,1634314745
401,nelson bay,-32.7167,152.15,57.76,69,31,4.0,AU,1634314667
402,yelanskiy,56.8419,62.5014,48.51,57,32,13.56,RU,1634314745
403,zhigalovo,54.8097,105.1578,23.61,51,99,3.15,RU,1634314746
404,quatre cocos,-20.2078,57.7625,74.08,75,19,13.02,MU,1634314746
405,rio gallegos,-51.6226,-69.2181,57.25,28,75,23.02,AR,1634314747
406,bose,45.4612,8.0137,59.5,77,55,1.81,IT,1634314747
407,atkarsk,51.8718,45.0078,44.92,54,12,6.73,RU,1634314536
408,nieuw amsterdam,5.8833,-55.0833,96.03,54,40,11.5,SR,1634314748
409,karpathos,35.507,27.2132,73.36,78,40,6.91,GR,1634314748
410,toora-khem,52.4675,96.11,22.78,58,6,2.15,RU,1634314749
411,barpeta,26.3167,91.0,80.69,71,78,3.89,IN,1634314749
412,jutai,-5.1833,-68.9,99.73,34,67,4.56,BR,1634314750
413,ostrovnoy,68.0531,39.5131,40.86,78,79,23.96,RU,1634314750
414,palu,-0.8917,119.8707,77.41,96,59,2.13,ID,1634314460
415,wanlaweyn,2.6185,44.8938,81.28,64,60,18.7,SO,1634314751
416,aksha,50.2814,113.2867,20.26,50,52,13.35,RU,1634314751
417,richards bay,-28.783,32.0377,73.6,72,0,15.84,ZA,1634314752
418,sao gabriel da cachoeira,-0.1303,-67.0892,93.0,59,40,8.05,BR,1634314753
419,talara,-4.5772,-81.2719,75.96,60,0,20.71,PE,1634314753
420,itoigawa,37.0333,137.85,67.6,86,54,5.48,JP,1634314754
421,coquimbo,-29.9533,-71.3436,62.33,55,0,14.97,CL,1634314575
422,labuhan,-6.8844,112.2051,82.35,74,99,7.9,ID,1634314754
423,arman,59.7,150.1667,19.2,58,1,12.21,RU,1634314755
424,bluefield,37.2698,-81.2223,77.5,68,20,3.44,US,1634314755
425,nabire,-3.3667,135.4833,76.46,90,99,3.09,ID,1634314755
426,sumbe,-11.2061,13.8437,76.39,71,9,10.51,AO,1634314756
427,jam sahib,26.2958,68.6292,77.02,11,0,3.96,PK,1634314756
428,tuatapere,-46.1333,167.6833,37.54,88,85,5.3,NZ,1634314757
429,guerrero negro,27.9769,-114.0611,72.64,46,0,1.45,MX,1634314757
430,cabo san lucas,22.8909,-109.9124,82.71,65,20,0.0,MX,1634314489
431,cockburn town,21.4612,-71.1419,82.42,70,15,7.11,TC,1634314758
432,harper,4.375,-7.7169,82.18,77,31,7.36,LR,1634314759
433,maymyo,22.0333,96.4667,66.09,87,77,3.87,MM,1634314759
434,sola,-13.8833,167.55,80.26,76,91,3.56,VU,1634314759
435,bay roberts,47.5999,-53.2648,50.32,89,100,8.01,CA,1634314760
436,dunedin,-45.8742,170.5036,48.79,83,100,1.72,NZ,1634314760
437,tougue,11.4667,-11.6,85.01,51,33,5.21,GN,1634314761
438,saint-francois,46.4154,3.9054,60.24,61,0,4.61,FR,1634314762
439,odweyne,9.4092,45.064,81.48,37,39,10.6,SO,1634314762
440,te anau,-45.4167,167.7167,36.73,92,83,2.21,NZ,1634314762
441,kasama,-10.2129,31.1808,78.04,36,77,1.59,ZM,1634314773
442,port hardy,50.6996,-127.4199,50.18,93,90,4.61,CA,1634314561
443,port augusta,-32.5,137.7667,57.34,82,5,8.95,AU,1634314773
444,tromso,69.6496,18.957,34.45,86,20,3.44,NO,1634314774
445,srednekolymsk,67.45,153.6833,10.17,97,95,1.57,RU,1634314774
446,kosonsoy,41.2561,71.5508,52.36,27,0,4.63,UZ,1634314775
447,orchard homes,46.8633,-114.0484,48.27,68,90,1.99,US,1634314775
448,bondo,3.8146,23.6866,75.24,79,96,3.87,CD,1634314776
449,bengkulu,-3.8004,102.2655,76.55,85,79,3.38,ID,1634314776
450,kayerkan,69.3497,87.7602,32.11,98,100,15.59,RU,1634314777
451,koumra,8.9126,17.5539,78.31,83,97,2.66,TD,1634314777
452,san julian,21.0167,-102.1667,75.2,46,18,3.62,MX,1634314778
453,robertsport,6.7533,-11.3686,81.39,74,79,9.62,LR,1634314778
454,faya,18.3851,42.4509,71.71,24,0,11.05,SA,1634314779
455,san quintin,30.4833,-115.95,70.7,44,0,2.75,MX,1634314779
456,luderitz,-26.6481,15.1594,61.21,67,49,27.89,NA,1634314780
457,sydney,-33.8679,151.2073,57.47,70,0,1.01,AU,1634313985
458,denpasar,-8.65,115.2167,82.06,78,20,1.14,ID,1634314780
459,teguise,29.0605,-13.564,77.22,61,20,17.27,ES,1634314781
460,bontang,0.1333,117.5,80.19,86,55,3.06,ID,1634314781
461,hofn,64.2539,-15.2082,46.42,57,20,16.11,IS,1634314782
462,kismayo,-0.3582,42.5454,78.82,85,71,16.2,SO,1634314782
463,aldan,58.6031,125.3894,15.4,95,100,6.17,RU,1634314783
464,puerto escondido,15.85,-97.0667,88.63,66,1,4.61,MX,1634314769
465,warangal,18.0,79.5833,74.37,96,100,5.55,IN,1634314783
466,half moon bay,37.4636,-122.4286,66.74,57,1,1.01,US,1634314784
467,sembakung,3.8167,117.25,80.53,98,95,0.29,ID,1634314784
468,marsh harbour,26.5412,-77.0636,80.55,61,7,7.61,BS,1634314785
469,gambela,8.25,34.5833,77.97,76,7,3.65,ET,1634314785
470,medina,24.4686,39.6142,99.03,8,0,6.91,SA,1634314786
471,preobrazheniye,42.9019,133.9064,50.81,55,100,1.5,RU,1634314786
472,uyuni,-20.4597,-66.825,59.04,11,0,18.28,BO,1634314787
473,guiratinga,-16.3494,-53.7583,94.62,37,100,8.75,BR,1634314788
474,sangre grande,10.5835,-61.1177,92.93,71,19,11.63,TT,1634314788
475,bam,29.106,58.357,75.0,11,0,10.31,IR,1634314556
476,woodward,36.4337,-99.3904,57.96,50,75,25.32,US,1634314788
477,alyangula,-13.8483,136.4192,80.82,78,83,9.75,AU,1634314789
478,ushtobe,45.2514,77.9838,48.56,39,4,3.06,KZ,1634314790
479,chumikan,54.7183,135.315,23.4,64,3,6.29,RU,1634314790
480,aklavik,68.2191,-135.0107,23.83,100,75,2.3,CA,1634314791
481,chicama,-7.8447,-79.1469,61.34,64,100,8.63,PE,1634314791
482,ambilobe,-13.2,49.05,77.94,60,32,8.16,MG,1634314791
483,miramar,25.9873,-80.2323,89.01,74,90,12.66,US,1634314792
484,boyolangu,-8.1181,111.8935,75.25,88,97,4.45,ID,1634314792
485,port pirie,-33.1833,138.0167,57.29,92,18,7.25,AU,1634314793
486,juneau,58.3019,-134.4197,41.0,94,90,8.05,US,1634314793
487,anadyr,64.75,177.4833,10.9,78,0,11.18,RU,1634314794
488,umm lajj,25.0213,37.2685,84.47,66,0,7.09,SA,1634314794
489,tukrah,32.5341,20.5791,71.26,55,44,20.65,LY,1634314795
490,carballo,43.213,-8.691,70.07,77,85,3.94,ES,1634314805
491,pilot butte,50.4668,-104.4178,37.65,79,20,11.5,CA,1634314806
492,zlitan,32.4674,14.5687,69.22,58,59,22.06,LY,1634314807
493,fairview,40.8126,-73.999,79.25,59,1,4.61,US,1634314637
494,cotonou,6.3654,2.4183,87.78,62,40,12.66,BJ,1634314808
495,crotone,39.0851,17.1178,60.75,51,0,8.05,IT,1634314809
496,sarai alamgir,32.9012,73.7559,78.78,19,0,4.76,PK,1634314809
497,mae sai,20.4335,99.8762,72.45,99,100,2.39,TH,1634314810
498,naze,28.3667,129.4833,74.26,82,19,1.7,JP,1634314811
499,kununurra,-15.7667,128.7333,69.78,68,64,0.0,AU,1634314811
500,brigg,53.552,-0.4921,55.11,70,40,5.75,GB,1634314812
501,suez,29.9737,32.5263,82.26,44,61,15.66,EG,1634314797
502,terra santa,-2.1042,-56.4869,101.43,23,74,7.61,BR,1634314812
503,hirara,24.8,125.2833,81.97,71,12,14.54,JP,1634314813
504,kachhwa,25.2167,82.7167,84.18,64,75,3.29,IN,1634314813
505,hit,33.6416,42.8251,89.24,19,62,6.46,IQ,1634314814
506,hasaki,35.7333,140.8333,64.69,70,86,6.89,JP,1634314814
507,arkhangelsk,64.5401,40.5433,33.91,100,40,4.47,RU,1634314814
508,santa marta,11.2408,-74.199,83.77,79,83,4.03,CO,1634314815
509,berezovyy,51.6667,135.7,25.81,67,100,3.4,RU,1634314815
510,eureka,40.8021,-124.1637,49.93,95,3,2.51,US,1634314816
511,salalah,17.0151,54.0924,78.89,89,0,3.44,OM,1634314816
512,arcachon,44.5875,-1.0519,67.41,55,0,6.91,FR,1634314817
513,ratnagiri,16.9833,73.3,83.14,79,97,7.38,IN,1634314817
514,viedma,-40.8135,-62.9967,62.96,18,0,14.83,AR,1634314818
515,tomatlan,19.9333,-105.25,83.71,64,0,1.14,MX,1634314818
516,cayenne,4.9333,-52.3333,89.64,76,75,7.0,GF,1634314816
517,nueva loja,0.0847,-76.8828,90.88,66,75,6.91,EC,1634314819
518,comodoro rivadavia,-45.8667,-67.5,66.06,24,20,43.73,AR,1634314820
519,moerai,-22.4333,-151.3333,76.08,81,39,8.72,PF,1634314821
520,akdepe,42.0551,59.3788,51.89,21,0,9.8,TM,1634314821
521,tura,25.5198,90.2201,76.6,92,98,4.34,IN,1634314822
522,sabang,5.8933,95.3214,82.89,78,62,16.4,ID,1634314822
523,pachino,36.7186,15.0907,64.44,48,28,10.96,IT,1634314823
524,port antonio,18.18,-76.4612,89.51,66,52,4.79,JM,1634314823
525,cairns,-16.9167,145.7667,75.07,78,94,6.91,AU,1634314824
526,sangar,63.9242,127.4739,8.96,96,62,4.5,RU,1634314824
527,talnakh,69.4865,88.3972,32.56,99,100,12.03,RU,1634314825
528,beaufort,5.3473,115.7455,80.76,86,100,1.97,MY,1634314825
529,deputatskiy,69.3,139.9,-2.47,100,97,2.82,RU,1634314826
530,sheopur,25.6667,76.7,76.35,35,1,3.96,IN,1634314827
531,rudnichnyy,59.617,52.4703,44.35,80,100,13.11,RU,1634314827
532,north vernon,39.0062,-85.6236,73.74,83,97,11.74,US,1634314828
533,acapulco,16.8634,-99.8901,85.82,79,40,0.0,MX,1634314829
534,myitkyina,25.3833,97.4,79.47,78,90,0.58,MM,1634314829
535,verkhoyansk,67.5447,133.385,10.49,98,97,1.43,RU,1634314830
536,aswan,24.0934,32.907,98.15,14,0,9.78,EG,1634314830
537,tumen,42.9661,129.8425,42.64,45,76,12.59,CN,1634314831
538,yermakovskoye,53.2831,92.4003,29.75,72,2,2.24,RU,1634314831
539,svetlogorsk,52.6333,29.7333,44.62,71,88,9.55,BY,1634314842
540,ribas do rio pardo,-20.4431,-53.7592,96.48,37,49,17.38,BR,1634314842
541,qui nhon,13.7667,109.2333,78.98,88,100,4.85,VN,1634314843
542,puerto madryn,-42.7692,-65.0385,62.33,26,0,16.51,AR,1634314843
543,fort-shevchenko,44.5086,50.263,61.95,41,7,3.91,KZ,1634314844
544,roma,43.2128,-75.4557,75.65,88,90,4.61,US,1634314838
545,general roca,-39.0333,-67.5833,60.87,21,0,16.02,AR,1634314844
546,macusani,-14.0833,-70.4333,51.01,43,24,4.25,PE,1634314845
547,melfort,52.8667,-104.6177,39.33,65,17,11.5,CA,1634314812
548,pangnirtung,66.1451,-65.7125,28.4,80,20,0.0,CA,1634314846
549,dawei,14.0833,98.2,75.72,93,100,4.41,MM,1634314846
550,broken hill,-31.95,141.4333,49.84,73,0,13.27,AU,1634314847
551,zhob,31.3411,69.4481,70.47,14,0,2.51,PK,1634314847
552,maniitsoq,65.4167,-52.9,39.6,73,3,4.61,GL,1634314848
553,mahon,39.8885,4.2658,70.36,64,20,9.22,ES,1634314848
554,audincourt,47.4833,6.8534,60.04,78,100,3.24,FR,1634314849
555,kastamonu,41.5,33.6667,58.59,48,16,3.0,TR,1634314849
556,junction city,39.0286,-96.8314,58.14,64,75,1.99,US,1634314850
557,nemuro,43.3236,145.575,51.58,65,45,16.53,JP,1634314850
558,nogliki,51.8333,143.1667,31.73,83,19,14.97,RU,1634314851
559,beloha,-25.1667,45.05,81.03,30,17,7.7,MG,1634314851
560,cooma,-36.2333,149.1333,42.51,82,100,14.07,AU,1634314852
561,kanigoro,-8.13,112.219,73.72,90,99,4.56,ID,1634314852
562,orikhiv,47.5673,35.7858,54.23,42,100,7.27,UA,1634314853
563,palimbang,6.2106,124.1894,78.96,85,95,3.38,PH,1634314853
564,navahrudak,53.6,25.8333,48.96,76,100,15.43,BY,1634314853
565,olhao,37.0286,-7.8411,71.49,78,0,8.05,PT,1634314854
566,kathu,7.9178,98.3332,78.62,80,37,6.24,TH,1634314854
